{
"type": "FeatureCollection",
"name": "cities_geom_4326",
"crs": { "type": "name", "properties": { "name": "urn:ogc:def:crs:OGC:1.3:CRS84" } },
"features": [
{ "type": "Feature", "properties": { "city": "Stockholm" }, "geometry": { "type": "Point", "coordinates": [ 18.046323782159138, 59.310088988446658 ] } },
{ "type": "Feature", "properties": { "city": "Göteborg" }, "geometry": { "type": "Point", "coordinates": [ 11.980971452134995, 57.671707383286439 ] } },
{ "type": "Feature", "properties": { "city": "Malmö" }, "geometry": { "type": "Point", "coordinates": [ 13.021417281827814, 55.593192450121855 ] } },
{ "type": "Feature", "properties": { "city": "Uppsala" }, "geometry": { "type": "Point", "coordinates": [ 17.638940878760309, 59.849758235797928 ] } },
{ "type": "Feature", "properties": { "city": "Upplands Väsby och Sollentuna" }, "geometry": { "type": "Point", "coordinates": [ 17.938852198721911, 59.422401866047871 ] } },
{ "type": "Feature", "properties": { "city": "Västerås" }, "geometry": { "type": "Point", "coordinates": [ 16.542151860573426, 59.617316302300189 ] } },
{ "type": "Feature", "properties": { "city": "Örebro" }, "geometry": { "type": "Point", "coordinates": [ 15.196519861720583, 59.266930404194547 ] } },
{ "type": "Feature", "properties": { "city": "Linköping" }, "geometry": { "type": "Point", "coordinates": [ 15.625662053483595, 58.40941405510744 ] } },
{ "type": "Feature", "properties": { "city": "Helsingborg" }, "geometry": { "type": "Point", "coordinates": [ 12.720992038126754, 56.042408728820675 ] } },
{ "type": "Feature", "properties": { "city": "Norrköping" }, "geometry": { "type": "Point", "coordinates": [ 16.149326160443845, 58.579332111536047 ] } },
{ "type": "Feature", "properties": { "city": "Jönköping" }, "geometry": { "type": "Point", "coordinates": [ 14.260752763836582, 57.780384012309902 ] } },
{ "type": "Feature", "properties": { "city": "Lund" }, "geometry": { "type": "Point", "coordinates": [ 13.199161531865016, 55.708315584203255 ] } },
{ "type": "Feature", "properties": { "city": "Umeå" }, "geometry": { "type": "Point", "coordinates": [ 20.270556604703611, 63.828449894381208 ] } },
{ "type": "Feature", "properties": { "city": "Gävle" }, "geometry": { "type": "Point", "coordinates": [ 17.175015283251494, 60.665138771058174 ] } },
{ "type": "Feature", "properties": { "city": "Borås" }, "geometry": { "type": "Point", "coordinates": [ 12.945732911384553, 57.717102972951182 ] } },
{ "type": "Feature", "properties": { "city": "Södertälje" }, "geometry": { "type": "Point", "coordinates": [ 17.599002049179795, 59.19438580118733 ] } },
{ "type": "Feature", "properties": { "city": "Eskilstuna" }, "geometry": { "type": "Point", "coordinates": [ 16.449036626640552, 59.34870443541319 ] } },
{ "type": "Feature", "properties": { "city": "Halmstad" }, "geometry": { "type": "Point", "coordinates": [ 12.90037087934542, 56.658390515987016 ] } },
{ "type": "Feature", "properties": { "city": "Växjö" }, "geometry": { "type": "Point", "coordinates": [ 14.802801711975135, 56.889032808219127 ] } },
{ "type": "Feature", "properties": { "city": "Karlstad" }, "geometry": { "type": "Point", "coordinates": [ 13.509975734544879, 59.387474057783024 ] } },
{ "type": "Feature", "properties": { "city": "Sundsvall" }, "geometry": { "type": "Point", "coordinates": [ 17.285989361706786, 62.395510977092421 ] } },
{ "type": "Feature", "properties": { "city": "Östersund" }, "geometry": { "type": "Point", "coordinates": [ 14.679068375570768, 63.158065401493339 ] } },
{ "type": "Feature", "properties": { "city": "Trollhättan" }, "geometry": { "type": "Point", "coordinates": [ 12.29897404919025, 58.285620085041728 ] } },
{ "type": "Feature", "properties": { "city": "Nordöstra Göteborg" }, "geometry": { "type": "Point", "coordinates": [ 12.027543917221639, 57.774398227890053 ] } },
{ "type": "Feature", "properties": { "city": "Luleå" }, "geometry": { "type": "Point", "coordinates": [ 22.191490298482812, 65.583822525528959 ] } },
{ "type": "Feature", "properties": { "city": "Lidingö" }, "geometry": { "type": "Point", "coordinates": [ 18.131042421387651, 59.364155495955217 ] } },
{ "type": "Feature", "properties": { "city": "Borlänge" }, "geometry": { "type": "Point", "coordinates": [ 15.427325703073777, 60.488306487287488 ] } },
{ "type": "Feature", "properties": { "city": "Tumba" }, "geometry": { "type": "Point", "coordinates": [ 17.823302819813922, 59.193551051850285 ] } },
{ "type": "Feature", "properties": { "city": "Kristianstad" }, "geometry": { "type": "Point", "coordinates": [ 14.125657184054022, 56.020634478528208 ] } },
{ "type": "Feature", "properties": { "city": "Kalmar" }, "geometry": { "type": "Point", "coordinates": [ 16.321778450435595, 56.669420068430121 ] } },
{ "type": "Feature", "properties": { "city": "Falun" }, "geometry": { "type": "Point", "coordinates": [ 15.656070595850744, 60.602737756571017 ] } },
{ "type": "Feature", "properties": { "city": "Skövde" }, "geometry": { "type": "Point", "coordinates": [ 13.853778852398243, 58.39948276551069 ] } },
{ "type": "Feature", "properties": { "city": "Karlskrona" }, "geometry": { "type": "Point", "coordinates": [ 15.630834784442857, 56.192205964861536 ] } },
{ "type": "Feature", "properties": { "city": "Skellefteå" }, "geometry": { "type": "Point", "coordinates": [ 20.927878468618871, 64.752131361996049 ] } },
{ "type": "Feature", "properties": { "city": "Uddevalla" }, "geometry": { "type": "Point", "coordinates": [ 11.91420002572195, 58.352113485215796 ] } },
{ "type": "Feature", "properties": { "city": "Varberg" }, "geometry": { "type": "Point", "coordinates": [ 12.273336337149468, 57.097291568795121 ] } },
{ "type": "Feature", "properties": { "city": "Åkersberga" }, "geometry": { "type": "Point", "coordinates": [ 18.286076863990697, 59.487093420574169 ] } },
{ "type": "Feature", "properties": { "city": "Landskrona" }, "geometry": { "type": "Point", "coordinates": [ 12.837006501241817, 55.87941735301424 ] } },
{ "type": "Feature", "properties": { "city": "Örnsköldsvik" }, "geometry": { "type": "Point", "coordinates": [ 18.676190775574668, 63.265490833667428 ] } },
{ "type": "Feature", "properties": { "city": "Nyköping" }, "geometry": { "type": "Point", "coordinates": [ 17.018461733909419, 58.758238241488179 ] } },
{ "type": "Feature", "properties": { "city": "Vallentuna" }, "geometry": { "type": "Point", "coordinates": [ 18.082475588461463, 59.50121345994912 ] } },
{ "type": "Feature", "properties": { "city": "Motala" }, "geometry": { "type": "Point", "coordinates": [ 15.036866639122163, 58.544165683190741 ] } },
{ "type": "Feature", "properties": { "city": "Trelleborg" }, "geometry": { "type": "Point", "coordinates": [ 13.181203245374935, 55.372350216186526 ] } },
{ "type": "Feature", "properties": { "city": "Märsta" }, "geometry": { "type": "Point", "coordinates": [ 17.838642317032708, 59.623176891796497 ] } },
{ "type": "Feature", "properties": { "city": "Ängelholm" }, "geometry": { "type": "Point", "coordinates": [ 12.843965289624206, 56.267167852734566 ] } },
{ "type": "Feature", "properties": { "city": "Karlskoga" }, "geometry": { "type": "Point", "coordinates": [ 14.491745120495775, 59.315101784677324 ] } },
{ "type": "Feature", "properties": { "city": "Lerum" }, "geometry": { "type": "Point", "coordinates": [ 12.266469586629681, 57.768653979445922 ] } },
{ "type": "Feature", "properties": { "city": "Alingsås" }, "geometry": { "type": "Point", "coordinates": [ 12.530750301935239, 57.930094190409186 ] } },
{ "type": "Feature", "properties": { "city": "Sandviken" }, "geometry": { "type": "Point", "coordinates": [ 16.768121166527607, 60.612522876682384 ] } },
{ "type": "Feature", "properties": { "city": "Falkenberg" }, "geometry": { "type": "Point", "coordinates": [ 12.497085556755998, 56.901416712979128 ] } },
{ "type": "Feature", "properties": { "city": "Kungälv" }, "geometry": { "type": "Point", "coordinates": [ 11.975776823846873, 57.872343271471436 ] } },
{ "type": "Feature", "properties": { "city": "Katrineholm" }, "geometry": { "type": "Point", "coordinates": [ 16.201432648161468, 58.991859493483396 ] } },
{ "type": "Feature", "properties": { "city": "Visby" }, "geometry": { "type": "Point", "coordinates": [ 18.307101145218059, 57.629001974611974 ] } },
{ "type": "Feature", "properties": { "city": "Vänersborg" }, "geometry": { "type": "Point", "coordinates": [ 12.324500100781609, 58.365368534924208 ] } },
{ "type": "Feature", "properties": { "city": "Torslanda" }, "geometry": { "type": "Point", "coordinates": [ 11.739113132031626, 57.705565166613951 ] } },
{ "type": "Feature", "properties": { "city": "Lidköping" }, "geometry": { "type": "Point", "coordinates": [ 13.149933607268434, 58.498020810229612 ] } },
{ "type": "Feature", "properties": { "city": "Piteå" }, "geometry": { "type": "Point", "coordinates": [ 21.451134716664335, 65.319712663404701 ] } },
{ "type": "Feature", "properties": { "city": "Enköping" }, "geometry": { "type": "Point", "coordinates": [ 17.072528091293275, 59.640281603210092 ] } },
{ "type": "Feature", "properties": { "city": "Gustavsberg" }, "geometry": { "type": "Point", "coordinates": [ 18.438936785710546, 59.314994392707526 ] } },
{ "type": "Feature", "properties": { "city": "Västervik" }, "geometry": { "type": "Point", "coordinates": [ 16.631730824484812, 57.75632376816764 ] } },
{ "type": "Feature", "properties": { "city": "Norrtälje" }, "geometry": { "type": "Point", "coordinates": [ 18.705720280968986, 59.759712795718173 ] } },
{ "type": "Feature", "properties": { "city": "Karlshamn" }, "geometry": { "type": "Point", "coordinates": [ 14.852428548629502, 56.192100617210549 ] } },
{ "type": "Feature", "properties": { "city": "Hässleholm" }, "geometry": { "type": "Point", "coordinates": [ 13.778359541888424, 56.159386492750635 ] } },
{ "type": "Feature", "properties": { "city": "Värnamo" }, "geometry": { "type": "Point", "coordinates": [ 14.058499108653523, 57.181761036730002 ] } },
{ "type": "Feature", "properties": { "city": "Eslöv" }, "geometry": { "type": "Point", "coordinates": [ 13.299934929914693, 55.838612847770229 ] } },
{ "type": "Feature", "properties": { "city": "Ystad" }, "geometry": { "type": "Point", "coordinates": [ 13.825371817155583, 55.434623217540462 ] } },
{ "type": "Feature", "properties": { "city": "Kristinehamn" }, "geometry": { "type": "Point", "coordinates": [ 14.077345745521127, 59.306288657799335 ] } },
{ "type": "Feature", "properties": { "city": "Köping" }, "geometry": { "type": "Point", "coordinates": [ 15.991549336093993, 59.51407247503122 ] } },
{ "type": "Feature", "properties": { "city": "Härnösand" }, "geometry": { "type": "Point", "coordinates": [ 17.932867603513401, 62.632637184765223 ] } },
{ "type": "Feature", "properties": { "city": "Oskarshamn" }, "geometry": { "type": "Point", "coordinates": [ 16.447027439553111, 57.261718649928369 ] } },
{ "type": "Feature", "properties": { "city": "Nässjö" }, "geometry": { "type": "Point", "coordinates": [ 14.704842692689773, 57.65285656744053 ] } },
{ "type": "Feature", "properties": { "city": "Mölnlycke" }, "geometry": { "type": "Point", "coordinates": [ 12.122571353736143, 57.653394389585557 ] } },
{ "type": "Feature", "properties": { "city": "Falköping" }, "geometry": { "type": "Point", "coordinates": [ 13.55514664701915, 58.170003314011872 ] } },
{ "type": "Feature", "properties": { "city": "Västerhaninge" }, "geometry": { "type": "Point", "coordinates": [ 18.070430543328786, 59.11499203659902 ] } },
{ "type": "Feature", "properties": { "city": "Boden" }, "geometry": { "type": "Point", "coordinates": [ 21.704566679864509, 65.818248316480762 ] } },
{ "type": "Feature", "properties": { "city": "Kiruna" }, "geometry": { "type": "Point", "coordinates": [ 20.254427994353648, 67.849432774569507 ] } },
{ "type": "Feature", "properties": { "city": "Kumla" }, "geometry": { "type": "Point", "coordinates": [ 15.14570703458573, 59.124343738606385 ] } },
{ "type": "Feature", "properties": { "city": "Mariestad" }, "geometry": { "type": "Point", "coordinates": [ 13.825448053202596, 58.701834314959221 ] } },
{ "type": "Feature", "properties": { "city": "Hudiksvall" }, "geometry": { "type": "Point", "coordinates": [ 17.112087042860132, 61.728947489171432 ] } },
{ "type": "Feature", "properties": { "city": "Ljungby" }, "geometry": { "type": "Point", "coordinates": [ 13.941004683809757, 56.8353951434895 ] } },
{ "type": "Feature", "properties": { "city": "Ludvika" }, "geometry": { "type": "Point", "coordinates": [ 15.170651579583939, 60.120173427087288 ] } },
{ "type": "Feature", "properties": { "city": "Staffanstorp" }, "geometry": { "type": "Point", "coordinates": [ 13.209277968709388, 55.640243073928929 ] } },
{ "type": "Feature", "properties": { "city": "Höllviken och Ljunghusen" }, "geometry": { "type": "Point", "coordinates": [ 12.954225504943539, 55.40835331804449 ] } },
{ "type": "Feature", "properties": { "city": "Kinna" }, "geometry": { "type": "Point", "coordinates": [ 12.680467338172615, 57.495406209663514 ] } },
{ "type": "Feature", "properties": { "city": "Höganäs" }, "geometry": { "type": "Point", "coordinates": [ 12.576926636742453, 56.196005475002728 ] } },
{ "type": "Feature", "properties": { "city": "Billdal" }, "geometry": { "type": "Point", "coordinates": [ 11.946499325572963, 57.542404274617525 ] } },
{ "type": "Feature", "properties": { "city": "Nynäshamn" }, "geometry": { "type": "Point", "coordinates": [ 17.944574799182011, 58.907560968393618 ] } },
{ "type": "Feature", "properties": { "city": "Tranås" }, "geometry": { "type": "Point", "coordinates": [ 14.974972955012039, 58.032214662836381 ] } },
{ "type": "Feature", "properties": { "city": "Strängnäs" }, "geometry": { "type": "Point", "coordinates": [ 17.022537184207184, 59.36464798934319 ] } },
{ "type": "Feature", "properties": { "city": "Arvika" }, "geometry": { "type": "Point", "coordinates": [ 12.578899090141016, 59.660682650915263 ] } },
{ "type": "Feature", "properties": { "city": "Bollnäs" }, "geometry": { "type": "Point", "coordinates": [ 16.388324117336904, 61.348370175507718 ] } },
{ "type": "Feature", "properties": { "city": "Skoghall" }, "geometry": { "type": "Point", "coordinates": [ 13.498374460714693, 59.327703040385231 ] } },
{ "type": "Feature", "properties": { "city": "Vetlanda" }, "geometry": { "type": "Point", "coordinates": [ 15.077940321266487, 57.421898814229444 ] } },
{ "type": "Feature", "properties": { "city": "Stenungsund" }, "geometry": { "type": "Point", "coordinates": [ 11.836022880886173, 58.063733477852416 ] } },
{ "type": "Feature", "properties": { "city": "Sala" }, "geometry": { "type": "Point", "coordinates": [ 16.592315001463209, 59.921972458125438 ] } },
{ "type": "Feature", "properties": { "city": "Nybro" }, "geometry": { "type": "Point", "coordinates": [ 15.91078000755871, 56.742894551394869 ] } },
{ "type": "Feature", "properties": { "city": "Bålsta" }, "geometry": { "type": "Point", "coordinates": [ 17.50409342460048, 59.551208242475774 ] } },
{ "type": "Feature", "properties": { "city": "Bunkeflostrand" }, "geometry": { "type": "Point", "coordinates": [ 12.923746926906063, 55.544778065986861 ] } },
{ "type": "Feature", "properties": { "city": "Mjölby" }, "geometry": { "type": "Point", "coordinates": [ 15.131162663263346, 58.332132933530573 ] } },
{ "type": "Feature", "properties": { "city": "Finspång" }, "geometry": { "type": "Point", "coordinates": [ 15.809373882008366, 58.704852651961573 ] } },
{ "type": "Feature", "properties": { "city": "Ronneby" }, "geometry": { "type": "Point", "coordinates": [ 15.279071887589273, 56.206851273252404 ] } },
{ "type": "Feature", "properties": { "city": "Lomma" }, "geometry": { "type": "Point", "coordinates": [ 13.080123706600471, 55.674724121871428 ] } },
{ "type": "Feature", "properties": { "city": "Oxie" }, "geometry": { "type": "Point", "coordinates": [ 13.092951832469167, 55.540743428892256 ] } },
{ "type": "Feature", "properties": { "city": "Mora" }, "geometry": { "type": "Point", "coordinates": [ 14.563540861615017, 61.009615578995323 ] } },
{ "type": "Feature", "properties": { "city": "Höör" }, "geometry": { "type": "Point", "coordinates": [ 13.547305009433774, 55.909673304997881 ] } },
{ "type": "Feature", "properties": { "city": "Söderhamn" }, "geometry": { "type": "Point", "coordinates": [ 17.052561048198037, 61.308367666894199 ] } },
{ "type": "Feature", "properties": { "city": "Onsala" }, "geometry": { "type": "Point", "coordinates": [ 12.033737308858255, 57.425953369156872 ] } },
{ "type": "Feature", "properties": { "city": "Svedala" }, "geometry": { "type": "Point", "coordinates": [ 13.232348815181732, 55.513517940983427 ] } },
{ "type": "Feature", "properties": { "city": "Fagersta" }, "geometry": { "type": "Point", "coordinates": [ 15.822898925220759, 59.992496145675567 ] } },
{ "type": "Feature", "properties": { "city": "Avesta" }, "geometry": { "type": "Point", "coordinates": [ 16.183726413809588, 60.138995641379154 ] } },
{ "type": "Feature", "properties": { "city": "Skara" }, "geometry": { "type": "Point", "coordinates": [ 13.434910397643462, 58.384243879923638 ] } },
{ "type": "Feature", "properties": { "city": "Ekerö" }, "geometry": { "type": "Point", "coordinates": [ 17.799874385654181, 59.274441755921799 ] } },
{ "type": "Feature", "properties": { "city": "Oxelösund" }, "geometry": { "type": "Point", "coordinates": [ 17.114469917212091, 58.670211619026354 ] } },
{ "type": "Feature", "properties": { "city": "Nödinge-Nol" }, "geometry": { "type": "Point", "coordinates": [ 12.108213922096743, 57.921795996261551 ] } },
{ "type": "Feature", "properties": { "city": "Ulricehamn" }, "geometry": { "type": "Point", "coordinates": [ 13.418621298755768, 57.791729750997938 ] } },
{ "type": "Feature", "properties": { "city": "Hallstahammar" }, "geometry": { "type": "Point", "coordinates": [ 16.23100108825831, 59.614509967312031 ] } },
{ "type": "Feature", "properties": { "city": "Bjuv" }, "geometry": { "type": "Point", "coordinates": [ 12.941702864565379, 56.073313142101647 ] } },
{ "type": "Feature", "properties": { "city": "Jordbro" }, "geometry": { "type": "Point", "coordinates": [ 18.125300167653112, 59.145422879177779 ] } },
{ "type": "Feature", "properties": { "city": "Arboga" }, "geometry": { "type": "Point", "coordinates": [ 15.826915152453047, 59.399440632632917 ] } },
{ "type": "Feature", "properties": { "city": "Kungsängen" }, "geometry": { "type": "Point", "coordinates": [ 17.735863723947844, 59.483492661796049 ] } },
{ "type": "Feature", "properties": { "city": "Timrå" }, "geometry": { "type": "Point", "coordinates": [ 17.347788952052024, 62.495906424325156 ] } },
{ "type": "Feature", "properties": { "city": "Gällivare" }, "geometry": { "type": "Point", "coordinates": [ 20.654477726787757, 67.143987269515833 ] } },
{ "type": "Feature", "properties": { "city": "Eksjö" }, "geometry": { "type": "Point", "coordinates": [ 14.974857846500008, 57.664669084948613 ] } },
{ "type": "Feature", "properties": { "city": "Gislaved" }, "geometry": { "type": "Point", "coordinates": [ 13.563583585568237, 57.29962815459659 ] } },
{ "type": "Feature", "properties": { "city": "Åhus" }, "geometry": { "type": "Point", "coordinates": [ 14.295048026316744, 55.928532902976883 ] } },
{ "type": "Feature", "properties": { "city": "Älmhult" }, "geometry": { "type": "Point", "coordinates": [ 14.135058451943372, 56.551511765660379 ] } },
{ "type": "Feature", "properties": { "city": "Bjärred" }, "geometry": { "type": "Point", "coordinates": [ 13.027605271008547, 55.721865653562183 ] } },
{ "type": "Feature", "properties": { "city": "Kävlinge" }, "geometry": { "type": "Point", "coordinates": [ 13.11393526323854, 55.796906942155111 ] } },
{ "type": "Feature", "properties": { "city": "Sävja" }, "geometry": { "type": "Point", "coordinates": [ 17.716795493868275, 59.814688794725612 ] } },
{ "type": "Feature", "properties": { "city": "Lindesberg" }, "geometry": { "type": "Point", "coordinates": [ 15.213019256606861, 59.602363995912889 ] } },
{ "type": "Feature", "properties": { "city": "Åstorp" }, "geometry": { "type": "Point", "coordinates": [ 12.933840664160265, 56.130725528405321 ] } },
{ "type": "Feature", "properties": { "city": "Saltsjöbaden" }, "geometry": { "type": "Point", "coordinates": [ 18.292406130728377, 59.28036193984704 ] } },
{ "type": "Feature", "properties": { "city": "Åmål" }, "geometry": { "type": "Point", "coordinates": [ 12.697020620145555, 59.050485755997975 ] } },
{ "type": "Feature", "properties": { "city": "Säffle" }, "geometry": { "type": "Point", "coordinates": [ 12.92133255243448, 59.133006899575825 ] } },
{ "type": "Feature", "properties": { "city": "Sigtuna" }, "geometry": { "type": "Point", "coordinates": [ 17.723328598338089, 59.619631922470688 ] } },
{ "type": "Feature", "properties": { "city": "Torshälla" }, "geometry": { "type": "Point", "coordinates": [ 16.477241497565963, 59.41902779008803 ] } },
{ "type": "Feature", "properties": { "city": "Sölvesborg" }, "geometry": { "type": "Point", "coordinates": [ 14.574177631784599, 56.029916475401137 ] } },
{ "type": "Feature", "properties": { "city": "Landvetter" }, "geometry": { "type": "Point", "coordinates": [ 12.218468636589899, 57.687085440188731 ] } },
{ "type": "Feature", "properties": { "city": "Alvesta" }, "geometry": { "type": "Point", "coordinates": [ 14.552855092604657, 56.901109426874889 ] } },
{ "type": "Feature", "properties": { "city": "Kvissleby" }, "geometry": { "type": "Point", "coordinates": [ 17.390743442236239, 62.289119146523291 ] } },
{ "type": "Feature", "properties": { "city": "Klippan" }, "geometry": { "type": "Point", "coordinates": [ 13.147401666015199, 56.134607568391843 ] } },
{ "type": "Feature", "properties": { "city": "Bankeryd" }, "geometry": { "type": "Point", "coordinates": [ 14.123019809032366, 57.858536410293617 ] } },
{ "type": "Feature", "properties": { "city": "Bro" }, "geometry": { "type": "Point", "coordinates": [ 17.643088222976886, 59.51343429983816 ] } },
{ "type": "Feature", "properties": { "city": "Lycksele" }, "geometry": { "type": "Point", "coordinates": [ 18.680614567094782, 64.582525201633942 ] } },
{ "type": "Feature", "properties": { "city": "Tibro" }, "geometry": { "type": "Point", "coordinates": [ 14.158007075730955, 58.419025489056331 ] } },
{ "type": "Feature", "properties": { "city": "Hallsberg" }, "geometry": { "type": "Point", "coordinates": [ 15.107901415762683, 59.067758483257009 ] } },
{ "type": "Feature", "properties": { "city": "Skurup" }, "geometry": { "type": "Point", "coordinates": [ 13.504011858150983, 55.481891464725798 ] } },
{ "type": "Feature", "properties": { "city": "Vimmerby" }, "geometry": { "type": "Point", "coordinates": [ 15.855074213066652, 57.668636291874158 ] } },
{ "type": "Feature", "properties": { "city": "Fisksätra" }, "geometry": { "type": "Point", "coordinates": [ 18.255186712089923, 59.292074167776263 ] } },
{ "type": "Feature", "properties": { "city": "Tidaholm" }, "geometry": { "type": "Point", "coordinates": [ 13.959936385369391, 58.179441711504268 ] } },
{ "type": "Feature", "properties": { "city": "Sjöbo" }, "geometry": { "type": "Point", "coordinates": [ 13.697008655430068, 55.63374866843413 ] } },
{ "type": "Feature", "properties": { "city": "Knivsta" }, "geometry": { "type": "Point", "coordinates": [ 17.794000568852251, 59.725387968791644 ] } },
{ "type": "Feature", "properties": { "city": "Habo" }, "geometry": { "type": "Point", "coordinates": [ 14.085635155158027, 57.906626598954681 ] } },
{ "type": "Feature", "properties": { "city": "Bromölla" }, "geometry": { "type": "Point", "coordinates": [ 14.474036112418322, 56.075578392421704 ] } },
{ "type": "Feature", "properties": { "city": "Lysekil" }, "geometry": { "type": "Point", "coordinates": [ 11.45139659311692, 58.280985294397553 ] } },
{ "type": "Feature", "properties": { "city": "Olofström" }, "geometry": { "type": "Point", "coordinates": [ 14.528306489335714, 56.276482206675468 ] } },
{ "type": "Feature", "properties": { "city": "Osby" }, "geometry": { "type": "Point", "coordinates": [ 13.994895280354998, 56.379683410472261 ] } },
{ "type": "Feature", "properties": { "city": "Kil" }, "geometry": { "type": "Point", "coordinates": [ 13.315345692587853, 59.504861829128636 ] } },
{ "type": "Feature", "properties": { "city": "Hörby" }, "geometry": { "type": "Point", "coordinates": [ 13.663601384356234, 55.85092765214042 ] } },
{ "type": "Feature", "properties": { "city": "Hedemora" }, "geometry": { "type": "Point", "coordinates": [ 15.980404904372323, 60.28037082594625 ] } },
{ "type": "Feature", "properties": { "city": "Nykvarn" }, "geometry": { "type": "Point", "coordinates": [ 17.432645339348326, 59.175352603548568 ] } },
{ "type": "Feature", "properties": { "city": "Söderköping" }, "geometry": { "type": "Point", "coordinates": [ 16.326702337607955, 58.475008668134855 ] } },
{ "type": "Feature", "properties": { "city": "Sollefteå" }, "geometry": { "type": "Point", "coordinates": [ 17.266890725157328, 63.160324255679676 ] } },
{ "type": "Feature", "properties": { "city": "Kalix" }, "geometry": { "type": "Point", "coordinates": [ 23.17767825766526, 65.849126978764886 ] } },
{ "type": "Feature", "properties": { "city": "Skanör med Falsterbo" }, "geometry": { "type": "Point", "coordinates": [ 12.855139489791021, 55.395339365104967 ] } },
{ "type": "Feature", "properties": { "city": "Strömstad" }, "geometry": { "type": "Point", "coordinates": [ 11.186366741433531, 58.944139090509047 ] } },
{ "type": "Feature", "properties": { "city": "Degerfors" }, "geometry": { "type": "Point", "coordinates": [ 14.430223567631806, 59.24065965905514 ] } },
{ "type": "Feature", "properties": { "city": "Ljusdal" }, "geometry": { "type": "Point", "coordinates": [ 16.092561550469288, 61.830575655374275 ] } },
{ "type": "Feature", "properties": { "city": "Valbo" }, "geometry": { "type": "Point", "coordinates": [ 17.014968801716012, 60.651908066349328 ] } },
{ "type": "Feature", "properties": { "city": "Åtvidaberg" }, "geometry": { "type": "Point", "coordinates": [ 15.997255809498023, 58.200397943133289 ] } },
{ "type": "Feature", "properties": { "city": "Tomelilla" }, "geometry": { "type": "Point", "coordinates": [ 13.947281433691249, 55.547180110066385 ] } },
{ "type": "Feature", "properties": { "city": "Åby" }, "geometry": { "type": "Point", "coordinates": [ 16.17478464110917, 58.665167848230105 ] } },
{ "type": "Feature", "properties": { "city": "Sandared" }, "geometry": { "type": "Point", "coordinates": [ 12.841938967590773, 57.704324246827937 ] } },
{ "type": "Feature", "properties": { "city": "Simrishamn" }, "geometry": { "type": "Point", "coordinates": [ 14.34788726501788, 55.550793272539387 ] } },
{ "type": "Feature", "properties": { "city": "Flen" }, "geometry": { "type": "Point", "coordinates": [ 16.592144030998561, 59.058353506821085 ] } },
{ "type": "Feature", "properties": { "city": "Ljungsbro" }, "geometry": { "type": "Point", "coordinates": [ 15.504013494069588, 58.506286434263302 ] } },
{ "type": "Feature", "properties": { "city": "Kramfors" }, "geometry": { "type": "Point", "coordinates": [ 17.796265731565793, 62.924842733496142 ] } },
{ "type": "Feature", "properties": { "city": "Nora" }, "geometry": { "type": "Point", "coordinates": [ 15.02578257136298, 59.517055217014168 ] } },
{ "type": "Feature", "properties": { "city": "Laholm" }, "geometry": { "type": "Point", "coordinates": [ 13.039088708370953, 56.504069146117097 ] } },
{ "type": "Feature", "properties": { "city": "Haparanda" }, "geometry": { "type": "Point", "coordinates": [ 24.117033000486774, 65.834179201309212 ] } },
{ "type": "Feature", "properties": { "city": "Vellinge" }, "geometry": { "type": "Point", "coordinates": [ 13.03220359908749, 55.474649738629616 ] } },
{ "type": "Feature", "properties": { "city": "Löddeköpinge" }, "geometry": { "type": "Point", "coordinates": [ 13.007128149226403, 55.759362658344621 ] } },
{ "type": "Feature", "properties": { "city": "Dalby" }, "geometry": { "type": "Point", "coordinates": [ 13.356144593634207, 55.664460400972438 ] } },
{ "type": "Feature", "properties": { "city": "Forshaga" }, "geometry": { "type": "Point", "coordinates": [ 13.482251365235289, 59.52784122421086 ] } },
{ "type": "Feature", "properties": { "city": "Skutskär" }, "geometry": { "type": "Point", "coordinates": [ 17.404766810576945, 60.634386765997675 ] } },
{ "type": "Feature", "properties": { "city": "Storvreta" }, "geometry": { "type": "Point", "coordinates": [ 17.703380013571731, 59.956774793864696 ] } },
{ "type": "Feature", "properties": { "city": "Gråbo" }, "geometry": { "type": "Point", "coordinates": [ 12.296633370077366, 57.837797670821764 ] } },
{ "type": "Feature", "properties": { "city": "Filipstad" }, "geometry": { "type": "Point", "coordinates": [ 14.159433390239329, 59.697061138710751 ] } },
{ "type": "Feature", "properties": { "city": "Södra Sandby" }, "geometry": { "type": "Point", "coordinates": [ 13.345256175533176, 55.717884161918704 ] } },
{ "type": "Feature", "properties": { "city": "Åsa" }, "geometry": { "type": "Point", "coordinates": [ 12.117890466031991, 57.348635966372768 ] } },
{ "type": "Feature", "properties": { "city": "Surahammar" }, "geometry": { "type": "Point", "coordinates": [ 16.228562691827502, 59.705938815082959 ] } },
{ "type": "Feature", "properties": { "city": "Hofors" }, "geometry": { "type": "Point", "coordinates": [ 16.294164729124518, 60.545374592021837 ] } },
{ "type": "Feature", "properties": { "city": "Rydebäck" }, "geometry": { "type": "Point", "coordinates": [ 12.771825674901491, 55.965236280752421 ] } },
{ "type": "Feature", "properties": { "city": "Leksand" }, "geometry": { "type": "Point", "coordinates": [ 14.998918267327349, 60.73128270194583 ] } },
{ "type": "Feature", "properties": { "city": "Hjo" }, "geometry": { "type": "Point", "coordinates": [ 14.278623434881153, 58.304433942552414 ] } },
{ "type": "Feature", "properties": { "city": "Järna" }, "geometry": { "type": "Point", "coordinates": [ 17.559176754721911, 59.090872970486622 ] } },
{ "type": "Feature", "properties": { "city": "Surte" }, "geometry": { "type": "Point", "coordinates": [ 12.017624915998232, 57.835073992265492 ] } },
{ "type": "Feature", "properties": { "city": "Trosa" }, "geometry": { "type": "Point", "coordinates": [ 17.560330391968538, 58.901476280899637 ] } },
{ "type": "Feature", "properties": { "city": "Kungsör" }, "geometry": { "type": "Point", "coordinates": [ 16.105880437073257, 59.422728171104126 ] } },
{ "type": "Feature", "properties": { "city": "Tierp" }, "geometry": { "type": "Point", "coordinates": [ 17.516999755522885, 60.347657911773091 ] } },
{ "type": "Feature", "properties": { "city": "Åkarp" }, "geometry": { "type": "Point", "coordinates": [ 13.110957976928324, 55.654001771433158 ] } },
{ "type": "Feature", "properties": { "city": "Holmsund" }, "geometry": { "type": "Point", "coordinates": [ 20.352583653701029, 63.700188964363328 ] } },
{ "type": "Feature", "properties": { "city": "Gnesta" }, "geometry": { "type": "Point", "coordinates": [ 17.307576966204504, 59.046756470540572 ] } },
{ "type": "Feature", "properties": { "city": "Perstorp" }, "geometry": { "type": "Point", "coordinates": [ 13.390573733297019, 56.137403947923353 ] } },
{ "type": "Feature", "properties": { "city": "Lindsdal" }, "geometry": { "type": "Point", "coordinates": [ 16.296267736520775, 56.73199805692478 ] } },
{ "type": "Feature", "properties": { "city": "Vi" }, "geometry": { "type": "Point", "coordinates": [ 17.417791413687869, 62.431147147425811 ] } },
{ "type": "Feature", "properties": { "city": "Hultsfred" }, "geometry": { "type": "Point", "coordinates": [ 15.841967033514525, 57.496402098574812 ] } },
{ "type": "Feature", "properties": { "city": "Färjestaden" }, "geometry": { "type": "Point", "coordinates": [ 16.48043259329631, 56.647382354394381 ] } },
{ "type": "Feature", "properties": { "city": "Vadstena" }, "geometry": { "type": "Point", "coordinates": [ 14.897128758589274, 58.445092316212346 ] } },
{ "type": "Feature", "properties": { "city": "Mullsjö" }, "geometry": { "type": "Point", "coordinates": [ 13.878383564044706, 57.917730553136728 ] } },
{ "type": "Feature", "properties": { "city": "Vårgårda" }, "geometry": { "type": "Point", "coordinates": [ 12.80831030742034, 58.034101327523864 ] } },
{ "type": "Feature", "properties": { "city": "Fristad" }, "geometry": { "type": "Point", "coordinates": [ 12.988725585767055, 57.815529674190543 ] } },
{ "type": "Feature", "properties": { "city": "Hönö" }, "geometry": { "type": "Point", "coordinates": [ 11.649716732421933, 57.690967640716892 ] } },
{ "type": "Feature", "properties": { "city": "Sävsjö" }, "geometry": { "type": "Point", "coordinates": [ 14.666926341795477, 57.397965395415639 ] } },
{ "type": "Feature", "properties": { "city": "Orsa" }, "geometry": { "type": "Point", "coordinates": [ 14.628886539716451, 61.090145725326863 ] } },
{ "type": "Feature", "properties": { "city": "Skåre" }, "geometry": { "type": "Point", "coordinates": [ 13.43437266970275, 59.435547955087131 ] } },
{ "type": "Feature", "properties": { "city": "Ödåkra" }, "geometry": { "type": "Point", "coordinates": [ 12.752903208090737, 56.101628301439817 ] } },
{ "type": "Feature", "properties": { "city": "Båstad" }, "geometry": { "type": "Point", "coordinates": [ 12.87851134529636, 56.429177005566942 ] } },
{ "type": "Feature", "properties": { "city": "Smedjebacken" }, "geometry": { "type": "Point", "coordinates": [ 15.413386812445077, 60.143109755971402 ] } },
{ "type": "Feature", "properties": { "city": "Vaggeryd" }, "geometry": { "type": "Point", "coordinates": [ 14.135901432947412, 57.493880907427958 ] } },
{ "type": "Feature", "properties": { "city": "Örkelljunga" }, "geometry": { "type": "Point", "coordinates": [ 13.288125563955731, 56.283480782539954 ] } },
{ "type": "Feature", "properties": { "city": "Mönsterås" }, "geometry": { "type": "Point", "coordinates": [ 16.449254459301709, 57.028923602647879 ] } },
{ "type": "Feature", "properties": { "city": "Rättvik" }, "geometry": { "type": "Point", "coordinates": [ 15.115666142899489, 60.872280084934395 ] } },
{ "type": "Feature", "properties": { "city": "Sunne" }, "geometry": { "type": "Point", "coordinates": [ 13.142430440560883, 59.841213945478849 ] } },
{ "type": "Feature", "properties": { "city": "Anderstorp" }, "geometry": { "type": "Point", "coordinates": [ 13.634355033886072, 57.279887858357384 ] } },
{ "type": "Feature", "properties": { "city": "Krokek" }, "geometry": { "type": "Point", "coordinates": [ 16.367417516327414, 58.672301967904829 ] } },
{ "type": "Feature", "properties": { "city": "Götene" }, "geometry": { "type": "Point", "coordinates": [ 13.477268291648171, 58.528785385183852 ] } },
{ "type": "Feature", "properties": { "city": "Älvsbyn" }, "geometry": { "type": "Point", "coordinates": [ 21.001406107139275, 65.676551570939665 ] } },
{ "type": "Feature", "properties": { "city": "Malmslätt" }, "geometry": { "type": "Point", "coordinates": [ 15.519551175322512, 58.413786171545027 ] } },
{ "type": "Feature", "properties": { "city": "Grums" }, "geometry": { "type": "Point", "coordinates": [ 13.108325866735369, 59.348952433094901 ] } },
{ "type": "Feature", "properties": { "city": "Vaxholm" }, "geometry": { "type": "Point", "coordinates": [ 18.331917274769776, 59.404317739454619 ] } },
{ "type": "Feature", "properties": { "city": "Skiftinge" }, "geometry": { "type": "Point", "coordinates": [ 16.541049995725416, 59.39292603145352 ] } },
{ "type": "Feature", "properties": { "city": "Malung" }, "geometry": { "type": "Point", "coordinates": [ 13.723288897804137, 60.654366325874278 ] } },
{ "type": "Feature", "properties": { "city": "Hjärup" }, "geometry": { "type": "Point", "coordinates": [ 13.14101709349203, 55.670745626277387 ] } }
]
}
